[
  {
    "id": "4",
    "image": "./images/grid.jpg",
    "city": "nagarkot",
    "name": "Tegalanglang",
    "location": "Bali , Indonesia"
  },
  {
    "id": "1",
    "image": "./images/usa.jpg",
    "city": "pokhara",
    "name": "Gili TRawangam",
    "location": "Lambok,Indonesia"
  },
  {
    "id": "2",
    "image": "./images/grid3.jpg",
    "city": "kathmandu",
    "name": "Borabudur",
    "location": "Megekang, Indonesia"
  },
  {
    "id": "3",
    "image": "./images/grid4.jpg",
    "city": "chitwan",
    "name": "Sekampul Waterfall",
    "location": "Bali,Indonesia"
  },
  {
    "id": "5",
    "image": "./images/grid.jpg",
    "name": "Tegalanglang",
    "city": "kathmandu",
    "location": "Bali , Indonesia"
  },
  {
    "id": "6",
    "image": "./images/usa.jpg",
    "name": "Gili TRawangam",
    "city": "kathmandu",

    "location": "Lambok,Indonesia"
  },
  {
    "id": "7",
    "image": "./images/grid3.jpg",
    "city": "chitwan",
    "name": "Borabudur",
    "location": "Megekang, Indonesia"
  },
  {
    "id": "8",
    "city": "nagarkot",
    "image": "./images/grid4.jpg",
    "name": "Sekampul Waterfall",
    "location": "Bali,Indonesia"
  }
]
